[
  {
    "locationId": 1,
    "country": "testCountryExpected5",
    "city": "testCityExpected1",
    "hotelSet": null,
    "locationTranslationMap": {
      "1": {
        "locationTransalteId": 1,
        "country": "testCountryExpected5",
        "city": "testCityExpected1",
        "location": null,
        "language": {
          "languageId": 1,
          "name": "EN"
        }
      },
      "2": {
        "locationTransalteId": 2,
        "country": "testCountryExpected1",
        "city": "testCityExpected2",
        "location": null,
        "language": {
          "languageId": 2,
          "name": "RU"
        }
      },
      "3": {
        "locationTransalteId": 3,
        "country": "testCountryExpected2",
        "city": "testCityExpected3",
        "location": null,
        "language": {
          "languageId": 3,
          "name": "BY"
        }
      }
    },
    "locationStatus": "active"
  },
  {
    "locationId": 2,
    "country": "testCountryExpected1",
    "city": "testCityExpected4",
    "hotelSet": null,
    "locationTranslationMap": {
      "1": {
        "locationTransalteId": 4,
        "country": "testCountryExpected1",
        "city": "testCityExpected4",
        "location": null,
        "language": {
          "languageId": 1,
          "name": "EN"
        }
      },
      "2": {
        "locationTransalteId": 5,
        "country": "testCountryExpected5",
        "city": "testCityExpected5",
        "location": null,
        "language": {
          "languageId": 2,
          "name": "RU"
        }
      },
      "3": {
        "locationTransalteId": 6,
        "country": "testCountryExpected8",
        "city": "testCityExpected6",
        "location": null,
        "language": {
          "languageId": 3,
          "name": "BY"
        }
      }
    },
    "locationStatus": "active"
  },
  {
    "locationId": 3,
    "country": "testCountryExpected7",
    "city": "testCityExpected7",
    "hotelSet": null,
    "locationTranslationMap": {
      "1": {
        "locationTransalteId": 7,
        "country": "testCountryExpected7",
        "city": "testCityExpected7",
        "location": null,
        "language": {
          "languageId": 1,
          "name": "EN"
        }
      },
      "2": {
        "locationTransalteId": 8,
        "country": "testCountryExpected5",
        "city": "testCityExpected8",
        "location": null,
        "language": {
          "languageId": 2,
          "name": "RU"
        }
      },
      "3": {
        "locationTransalteId": 9,
        "country": "testCountryExpected3",
        "city": "testCityExpected9",
        "location": null,
        "language": {
          "languageId": 3,
          "name": "BY"
        }
      }
    },
    "locationStatus": "active"
  },
  {
    "locationId": 4,
    "country": "testCountryExpected8",
    "city": "testCityExpected10",
    "hotelSet": null,
    "locationTranslationMap": {
      "1": {
        "locationTransalteId": 10,
        "country": "testCountryExpected8",
        "city": "testCityExpected10",
        "location": null,
        "language": {
          "languageId": 1,
          "name": "EN"
        }
      },
      "2": {
        "locationTransalteId": 11,
        "country": "testCountryExpected6",
        "city": "testCityExpected11",
        "location": null,
        "language": {
          "languageId": 2,
          "name": "RU"
        }
      },
      "3": {
        "locationTransalteId": 12,
        "country": "testCountryExpected4",
        "city": "testCityExpected12",
        "location": null,
        "language": {
          "languageId": 3,
          "name": "BY"
        }
      }
    },
    "locationStatus": "active"
  },
  {
    "locationId": 5,
    "country": "testCountryExpected5",
    "city": "testCityExpected13",
    "hotelSet": null,
    "locationTranslationMap": {
      "1": {
        "locationTransalteId": 13,
        "country": "testCountryExpected5",
        "city": "testCityExpected13",
        "location": null,
        "language": {
          "languageId": 1,
          "name": "EN"
        }
      },
      "2": {
        "locationTransalteId": 14,
        "country": "testCountryExpected4",
        "city": "testCityExpected14",
        "location": null,
        "language": {
          "languageId": 2,
          "name": "RU"
        }
      },
      "3": {
        "locationTransalteId": 15,
        "country": "testCountryExpected3",
        "city": "testCityExpected15",
        "location": null,
        "language": {
          "languageId": 3,
          "name": "BY"
        }
      }
    },
    "locationStatus": "active"
  },
  {
    "locationId": 6,
    "country": "testCountryExpected0",
    "city": "testCityExpected16",
    "hotelSet": null,
    "locationTranslationMap": {
      "1": {
        "locationTransalteId": 16,
        "country": "testCountryExpected0",
        "city": "testCityExpected16",
        "location": null,
        "language": {
          "languageId": 1,
          "name": "EN"
        }
      },
      "2": {
        "locationTransalteId": 17,
        "country": "testCountryExpected2",
        "city": "testCityExpected17",
        "location": null,
        "language": {
          "languageId": 2,
          "name": "RU"
        }
      },
      "3": {
        "locationTransalteId": 18,
        "country": "testCountryExpected3",
        "city": "testCityExpected18",
        "location": null,
        "language": {
          "languageId": 3,
          "name": "BY"
        }
      }
    },
    "locationStatus": "active"
  },
  {
    "locationId": 7,
    "country": "testCountryExpected4",
    "city": "testCityExpected19",
    "hotelSet": null,
    "locationTranslationMap": {
      "1": {
        "locationTransalteId": 19,
        "country": "testCountryExpected4",
        "city": "testCityExpected19",
        "location": null,
        "language": {
          "languageId": 1,
          "name": "EN"
        }
      },
      "2": {
        "locationTransalteId": 20,
        "country": "testCountryExpected4",
        "city": "testCityExpected20",
        "location": null,
        "language": {
          "languageId": 2,
          "name": "RU"
        }
      },
      "3": {
        "locationTransalteId": 21,
        "country": "testCountryExpected6",
        "city": "testCityExpected21",
        "location": null,
        "language": {
          "languageId": 3,
          "name": "BY"
        }
      }
    },
    "locationStatus": "active"
  },
  {
    "locationId": 8,
    "country": "testCountryExpected5",
    "city": "testCityExpected22",
    "hotelSet": null,
    "locationTranslationMap": {
      "1": {
        "locationTransalteId": 22,
        "country": "testCountryExpected5",
        "city": "testCityExpected22",
        "location": null,
        "language": {
          "languageId": 1,
          "name": "EN"
        }
      },
      "2": {
        "locationTransalteId": 23,
        "country": "testCountryExpected6",
        "city": "testCityExpected23",
        "location": null,
        "language": {
          "languageId": 2,
          "name": "RU"
        }
      },
      "3": {
        "locationTransalteId": 24,
        "country": "testCountryExpected5",
        "city": "testCityExpected24",
        "location": null,
        "language": {
          "languageId": 3,
          "name": "BY"
        }
      }
    },
    "locationStatus": "active"
  },
  {
    "locationId": 9,
    "country": "testCountryExpected1",
    "city": "testCityExpected25",
    "hotelSet": null,
    "locationTranslationMap": {
      "1": {
        "locationTransalteId": 25,
        "country": "testCountryExpected1",
        "city": "testCityExpected25",
        "location": null,
        "language": {
          "languageId": 1,
          "name": "EN"
        }
      },
      "2": {
        "locationTransalteId": 26,
        "country": "testCountryExpected6",
        "city": "testCityExpected26",
        "location": null,
        "language": {
          "languageId": 2,
          "name": "RU"
        }
      },
      "3": {
        "locationTransalteId": 27,
        "country": "testCountryExpected7",
        "city": "testCityExpected27",
        "location": null,
        "language": {
          "languageId": 3,
          "name": "BY"
        }
      }
    },
    "locationStatus": "active"
  },
  {
    "locationId": 10,
    "country": "testCountryExpected4",
    "city": "testCityExpected28",
    "hotelSet": null,
    "locationTranslationMap": {
      "1": {
        "locationTransalteId": 28,
        "country": "testCountryExpected4",
        "city": "testCityExpected28",
        "location": null,
        "language": {
          "languageId": 1,
          "name": "EN"
        }
      },
      "2": {
        "locationTransalteId": 29,
        "country": "testCountryExpected1",
        "city": "testCityExpected29",
        "location": null,
        "language": {
          "languageId": 2,
          "name": "RU"
        }
      },
      "3": {
        "locationTransalteId": 30,
        "country": "testCountryExpected8",
        "city": "testCityExpected30",
        "location": null,
        "language": {
          "languageId": 3,
          "name": "BY"
        }
      }
    },
    "locationStatus": "active"
  }
]